[
    {
        "name": "Uterine Contractions",
        "management": "",
        "quick points": "",
        "details": "",
        "category": "Rivers",
        "city": "Twentynine Palms",
        "state": "California",
        "id": 1001,
        "isFeatured": true,
        "isFavorite": true,
        "park": "Joshua Tree National Park",
        "coordinates": {
            "longitude": -116.166868,
            "latitude": 34.011286
        },
        "imageName": "ctx"
    },
    {
        "name": "Baseline fetal heart rate (FHR)",
        "management": "",
        "quick points": "",
        "details": "",
        "category": "Lakes",
        "city": "Port Alsworth",
        "state": "Alaska",
        "id": 1002,
        "isFeatured": false,
        "isFavorite": false,
        "park": "Lake Clark National Park and Preserve",
        "coordinates": {
            "longitude": -152.665167,
            "latitude": 59.980167
        },
        "imageName": "Baseline"
    },
    {
        "name": "Baseline FHR variability",
        "management": "",
        "quick points": "",
        "details": "",
        "category": "Mountains",
        "city": "Skagway",
        "state": "Alaska",
        "id": 1003,
        "isFeatured": false,
        "isFavorite": true,
        "park": "Klondike Gold Rush National Historical Park",
        "coordinates": {
            "longitude": -135.334571,
            "latitude": 59.560551
        },
        "imageName": "Variability"
    },
    {
        "name": "Accelerations",
        "management": "",
        "quick points": "",
        "details": "",
        "category": "Lakes",
        "city": "Browning",
        "state": "Montana",
        "id": 1004,
        "isFeatured": true,
        "isFavorite": true,
        "park": "Glacier National Park",
        "coordinates": {
            "longitude": -113.536248,
            "latitude": 48.69423
        },
        "imageName": "Accel"
    },
    {
        "name": "Early decelerations",
        "management": "",
        "quick points": "",
        "details": "",
        "category": "Lakes",
        "city": "Twin Lakes",
        "state": "Alaska",
        "id": 1005,
        "isFeatured": false,
        "isFavorite": false,
        "park": "Lake Clark National Park and Preserve",
        "coordinates": {
            "longitude": -153.849883,
            "latitude": 60.641684
        },
        "imageName": "EarlyDecel"
    },
    {
        "name": "Variable decelerations",
        "management": "",
        "quick points": "",
        "details": "",
        "category": "Mountains",
        "city": "West Glacier",
        "state": "Montana",
        "id": 1006,
        "isFeatured": false,
        "isFavorite": false,
        "park": "Glacier National Park",
        "coordinates": {
            "longitude": -113.934831,
            "latitude": 48.56002
        },
        "imageName": "VariableDecel"
    },
    {
        "name": "Late decelerations",
        "management": "",
        "quick points": "",
        "details": "",
        "category": "Rivers",
        "city": "Eaking",
        "state": "Alaska",
        "id": 1007,
        "isFeatured": true,
        "isFavorite": false,
        "park": "Charley Rivers National Preserve",
        "coordinates": {
            "longitude": -143.122586,
            "latitude": 65.350021
        },
        "imageName": "LateDecel",
    },
    {
        "name": "Prolonged decelerations",
        "management": "",
        "quick points": "",
        "details": "",
        "category": "Mountains",
        "city": "Icy Bay",
        "state": "Alaska",
        "id": 1008,
        "isFeatured": false,
        "isFavorite": false,
        "park": "Wrangell-St. Elias National Park and Preserve",
        "coordinates": {
            "longitude": -141.518167,
            "latitude": 60.089917
        },
        "imageName": "ProlongedDecel"
    },
    {
        "name": "Decels in general",
        "management": "",
        "quick points": "",
        "details": "",
        "category": "Lakes",
        "city": "Willow",
        "state": "Alaska",
        "id": 1009,
        "isFeatured": false,
        "isFavorite": false,
        "park": "State Recreation Area",
        "coordinates": {
            "longitude": -150.086103,
            "latitude": 61.694334
        },
        "imageName": "rainbowlake"
    },
    {
        "name": "Sinusoidal pattern",
        "management": "",
        "quick points": "",
        "details": "",
        "category": "Lakes",
        "city": "Newhalem",
        "state": "Washington",
        "id": 1010,
        "isFeatured": false,
        "isFavorite": false,
        "park": "North Cascades National Park",
        "coordinates": {
            "longitude": -121.17799,
            "latitude": 48.495442
        },
        "imageName": "Sinusoidal"
    }
]
